{
    "0": {
        "title": "Brenda Cowan",
        "year": "2004",
        "location": "",
        "county": "Fayette County",
        "type": [
            "murder"
        ]
    },
    "1": {
        "title": "Rodney Bixler",
        "year": "new 2000",
        "location": "",
        "county": "Anderson County",
        "type": [
            "rape",
            "murder"
        ]
    },
    "2": {
        "title": "Josiah Henry Combs",
        "year": "",
        "location": "",
        "county": "Perry County",
        "type": [
            "murder"
        ]
    },
    "3": {
        "title": "2018 Jeffersontown shooting",
        "year": "2018",
        "location": "Jeffersontown, Kentucky",
        "county": "Jefferson County",
        "type": [
            "shooting",
            "murder"
        ]
    },
    "4": {
        "title": "Heath High School shooting",
        "year": "1997",
        "location": "West Paducah, Kentucky, U.S.",
        "county": "McCracken County",
        "type": [
            "killing",
            "shooting",
            "mass shooting",
            "murder"
        ]
    },
    "5": {
        "title": "Harlan County War",
        "year": "1931",
        "location": "Harlan County, Kentucky, United States",
        "county": "Harlan County",
        "type": []
    },
    "6": {
        "title": "Marco Allen Chapman",
        "year": "2002",
        "location": "",
        "county": "Lyon County",
        "type": [
            "killing",
            "robber",
            "rape",
            "murder"
        ]
    },
    "7": {
        "title": "Walter Holmes",
        "year": "new 1932",
        "location": "",
        "county": "Jefferson County",
        "type": [
            "shooting",
            "assault",
            "murder",
            "robberies",
            "robbery",
            "robber"
        ]
    },
    "8": {
        "title": "Murder of Susan Smith",
        "year": "1989",
        "location": "",
        "county": "Pike County",
        "type": [
            "murder"
        ]
    },
    "9": {
        "title": "Sexual assault of Savannah Dietrich",
        "year": "2011",
        "location": "Louisville, Kentucky",
        "county": "Jefferson County",
        "type": [
            "sex crime",
            "assault"
        ]
    },
    "10": {
        "title": "Harold McQueen Jr.",
        "year": "1980",
        "location": "",
        "county": "Madison County",
        "type": [
            "killing",
            "shooting",
            "murder"
        ]
    },
    "11": {
        "title": "Isaac B. Desha",
        "year": "1828",
        "location": "",
        "county": "Fayette County",
        "type": [
            "killing",
            "murder"
        ]
    },
    "12": {
        "title": "Greene\u2013Jones War",
        "year": "",
        "location": "",
        "county": "Christian County",
        "type": [
            "riot"
        ]
    },
    "13": {
        "title": "Joe Fulks",
        "year": "1976",
        "location": "",
        "county": "Marshall County",
        "type": []
    },
    "14": {
        "title": "Beauchamp\u2013Sharp Tragedy",
        "year": "new 1824",
        "location": "",
        "county": "Franklin County",
        "type": [
            "killing",
            "murder"
        ]
    },
    "15": {
        "title": "Marshall County High School shooting",
        "year": "2018",
        "location": "Draffenville, Kentucky, U.S.",
        "county": "Marshall County",
        "type": [
            "shooting",
            "mass shooting",
            "murder"
        ]
    },
    "16": {
        "title": "Mox McQuery",
        "year": "",
        "location": "",
        "county": "Garrard County",
        "type": [
            "murder"
        ]
    },
    "17": {
        "title": "W. B. Whitt",
        "year": "1926",
        "location": "",
        "county": "Boyd County",
        "type": []
    },
    "18": {
        "title": "Killing of Guin Richie Phillips",
        "year": "new 2003",
        "location": "",
        "county": "Hardin County",
        "type": [
            "killing",
            "murder"
        ]
    },
    "19": {
        "title": "Paul C. Barth",
        "year": "1907",
        "location": "",
        "county": "Jefferson County",
        "type": []
    },
    "20": {
        "title": "Harpe brothers",
        "year": "1804",
        "location": "",
        "county": "Muhlenberg County",
        "type": [
            "killing",
            "murder"
        ]
    },
    "21": {
        "title": "Hatfield\u2013McCoy feud",
        "year": "1863",
        "location": "Tug Fork of the Big Sandy River, West Virginia\u2013Kentucky",
        "county": "",
        "type": []
    },
    "22": {
        "title": "Sam Catron",
        "year": "",
        "location": "",
        "county": "Pulaski County",
        "type": [
            "murder"
        ]
    },
    "23": {
        "title": "Eddie Hohnhorst",
        "year": "new 1914",
        "location": "",
        "county": "Kenton County",
        "type": [
            "new shooting"
        ]
    },
    "24": {
        "title": "Thomas Bowling",
        "year": "",
        "location": "",
        "county": "Fayette County",
        "type": [
            "murder"
        ]
    },
    "25": {
        "title": "James Wall (comedian)",
        "year": "",
        "location": "",
        "county": "Pike County",
        "type": []
    },
    "26": {
        "title": "Old Sparky",
        "year": "",
        "location": "",
        "county": "McCracken County",
        "type": [
            "murder"
        ]
    },
    "27": {
        "title": "Redhead murders",
        "year": "",
        "location": "",
        "county": "",
        "type": [
            "murder"
        ]
    },
    "28": {
        "title": "Corbin, Kentucky race riot of 1919",
        "year": "1919",
        "location": "Corbin, Kentucky, United States",
        "county": "Whitley County",
        "type": [
            "terrorist",
            "riot"
        ]
    },
    "29": {
        "title": "TWA Flight 541",
        "year": "1978",
        "location": "",
        "county": "",
        "type": [
            "hijacking"
        ]
    },
    "30": {
        "title": "Lynching of Leonard Woods",
        "year": "",
        "location": "",
        "county": "Letcher County",
        "type": [
            "killing",
            "shooting",
            "lynching",
            "murder"
        ]
    },
    "31": {
        "title": "Solomon P. Sharp",
        "year": "1825",
        "location": "",
        "county": "Franklin County",
        "type": [
            "murder"
        ]
    },
    "32": {
        "title": "William \"Bull\" Nelson",
        "year": "1862",
        "location": "",
        "county": "Jefferson County",
        "type": [
            "assault",
            "murder"
        ]
    },
    "33": {
        "title": "Tom Payne (basketball)",
        "year": "",
        "location": "",
        "county": "",
        "type": [
            "rape"
        ]
    },
    "34": {
        "title": "Lynching of Marie Thompson",
        "year": "new 1904",
        "location": "",
        "county": "Bullitt County",
        "type": [
            "killing",
            "lynching",
            "murder"
        ]
    },
    "35": {
        "title": "Marion Miley",
        "year": "1941",
        "location": "",
        "county": "Fayette County",
        "type": [
            "robbery",
            "robber",
            "murder"
        ]
    },
    "36": {
        "title": "Rainey Bethea",
        "year": "1936",
        "location": "",
        "county": "Daviess County",
        "type": [
            "killing",
            "rape",
            "murder"
        ]
    },
    "37": {
        "title": "Stanford v. Kentucky",
        "year": "new 1981",
        "location": "",
        "county": "Jefferson County",
        "type": [
            "shooting",
            "murder",
            "rape",
            "robbery",
            "robber"
        ]
    },
    "38": {
        "title": "Jereboam O. Beauchamp",
        "year": "1826",
        "location": "",
        "county": "Franklin County",
        "type": [
            "murder"
        ]
    },
    "39": {
        "title": "Ben Golden McCollum",
        "year": "1963",
        "location": "",
        "county": "Clay County",
        "type": [
            "robberies",
            "robber",
            "murder"
        ]
    },
    "40": {
        "title": "Thomas W. Stivers",
        "year": "1877",
        "location": "",
        "county": "Fayette County",
        "type": [
            "murder"
        ]
    },
    "41": {
        "title": "Harry Edward Greenwell",
        "year": "2013",
        "location": "",
        "county": "Jefferson County",
        "type": [
            "robbery",
            "burglary",
            "robber",
            "murder"
        ]
    },
    "42": {
        "title": "Disappearance of Crystal Rogers",
        "year": "",
        "location": "",
        "county": "Nelson County",
        "type": []
    },
    "43": {
        "title": "Larry Lamont White",
        "year": "new 1983",
        "location": "",
        "county": "Jefferson County",
        "type": [
            "rape",
            "shooting",
            "murder"
        ]
    },
    "44": {
        "title": "Phil Hankinson",
        "year": "1996",
        "location": "",
        "county": "Shelby County",
        "type": []
    },
    "45": {
        "title": "Hines House (Bowling Green, Kentucky)",
        "year": "",
        "location": "1103 Adams St., Bowling Green, Kentucky",
        "county": "Warren County",
        "type": [
            "arson"
        ]
    },
    "46": {
        "title": "Capital punishment in Kentucky",
        "year": "",
        "location": "",
        "county": "",
        "type": [
            "murder"
        ]
    },
    "47": {
        "title": "Harry Simms (labor leader)",
        "year": "1932",
        "location": "",
        "county": "Knox County",
        "type": [
            "murder"
        ]
    },
    "48": {
        "title": "Kentucky State Penitentiary",
        "year": "",
        "location": "Eddyville, Kentucky",
        "county": "Lyon County",
        "type": []
    },
    "49": {
        "title": "Cale Young Rice",
        "year": "1943",
        "location": "",
        "county": "Jefferson County",
        "type": []
    },
    "50": {
        "title": "Trinity murders",
        "year": "1984",
        "location": "Louisville, Kentucky, United States",
        "county": "Jefferson County",
        "type": [
            "assault",
            "kidnapping",
            "kidnapped",
            "murder"
        ]
    },
    "51": {
        "title": "Beoria Simmons",
        "year": "new 1981",
        "location": "",
        "county": "Jefferson County",
        "type": [
            "rape",
            "kidnapped",
            "murder"
        ]
    },
    "52": {
        "title": "Mel Ignatow",
        "year": "2008",
        "location": "",
        "county": "Jefferson County",
        "type": [
            "killing",
            "murder"
        ]
    },
    "53": {
        "title": "1959 United Mine Workers strike",
        "year": "1959",
        "location": "",
        "county": "",
        "type": []
    },
    "54": {
        "title": "David W. Maurer",
        "year": "",
        "location": "",
        "county": "",
        "type": []
    },
    "55": {
        "title": "William Quantrill",
        "year": "1865",
        "location": "",
        "county": "Jefferson County",
        "type": []
    },
    "56": {
        "title": "Floyd Ray Cook shootings and manhunt",
        "year": "2015",
        "location": "Cumberland County, Kentucky, Putnam County, Tennessee",
        "county": "Cumberland County",
        "type": [
            "shooting"
        ]
    },
    "57": {
        "title": "Killing of David McAtee",
        "year": "2020",
        "location": "Louisville, Kentucky",
        "county": "Jefferson County",
        "type": [
            "killing",
            "shooting",
            "murder"
        ]
    },
    "58": {
        "title": "Melvin Turpin",
        "year": "2010",
        "location": "",
        "county": "Fayette County",
        "type": []
    },
    "59": {
        "title": "Dan McGann",
        "year": "",
        "location": "",
        "county": "",
        "type": []
    },
    "60": {
        "title": "Shawn Windsor",
        "year": "",
        "location": "",
        "county": "Jefferson County",
        "type": [
            "killing",
            "murder"
        ]
    },
    "61": {
        "title": "Barbara Ann Hackmann Taylor",
        "year": "new 1987",
        "location": "",
        "county": "Scott County",
        "type": [
            "murder"
        ]
    },
    "62": {
        "title": "Charles Dickinson (historical figure)",
        "year": "",
        "location": "",
        "county": "Greenup County",
        "type": [
            "shooting"
        ]
    },
    "63": {
        "title": "John Duff (counterfeiter)",
        "year": "1805",
        "location": "",
        "county": "Livingston County",
        "type": [
            "killing",
            "thief",
            "murder"
        ]
    },
    "64": {
        "title": "Atlantis Plastics shooting",
        "year": "2008",
        "location": "Henderson, Kentucky, United States",
        "county": "Henderson County",
        "type": [
            "mass murder",
            "shooting",
            "mass shooting",
            "murder"
        ]
    },
    "65": {
        "title": "Lynching of the Walker family",
        "year": "new 1908",
        "location": "",
        "county": "Hickman County",
        "type": [
            "lynching",
            "murder"
        ]
    },
    "66": {
        "title": "Murder of Marlene Oakes",
        "year": "1980",
        "location": "",
        "county": "Boone County",
        "type": [
            "murder"
        ]
    },
    "67": {
        "title": "Ralph Baze",
        "year": "1992",
        "location": "",
        "county": "Powell County",
        "type": [
            "shooting",
            "murder"
        ]
    },
    "68": {
        "title": "Bloody Monday",
        "year": "1855",
        "location": "Louisville, Kentucky",
        "county": "Jefferson County",
        "type": [
            "riot"
        ]
    },
    "69": {
        "title": "Thomas M. Doherty",
        "year": "1906",
        "location": "",
        "county": "Campbell County",
        "type": []
    },
    "70": {
        "title": "Killing of Breonna Taylor",
        "year": "2020",
        "location": "Louisville, Kentucky, U.S.",
        "county": "Jefferson County",
        "type": [
            "killing",
            "shooting",
            "assault",
            "murder"
        ]
    },
    "71": {
        "title": "Art Kane",
        "year": "1995",
        "location": "",
        "county": "Garrard County",
        "type": []
    },
    "72": {
        "title": "Dan Johnson (Kentucky politician)",
        "year": "2017",
        "location": "5101 Bardstown RoadBullitt County, Kentucky",
        "county": "Bullitt County",
        "type": [
            "arson"
        ]
    },
    "73": {
        "title": "John Milton Elliott",
        "year": "1879",
        "location": "",
        "county": "Franklin County",
        "type": []
    },
    "74": {
        "title": "Hugh O'Connor (filmmaker)",
        "year": "1967",
        "location": "",
        "county": "Letcher County",
        "type": [
            "murder"
        ]
    },
    "75": {
        "title": "Steve Nunn",
        "year": "",
        "location": "",
        "county": "Barren County",
        "type": [
            "murder"
        ]
    },
    "76": {
        "title": "Henry Hardin Cherry Hall",
        "year": "",
        "location": "Bowling Green, Kentucky",
        "county": "Warren County",
        "type": [
            "arson"
        ]
    },
    "77": {
        "title": "Harry M. Caudill",
        "year": "1990",
        "location": "",
        "county": "Letcher County",
        "type": []
    },
    "78": {
        "title": "East Carter High School shooting",
        "year": "1993",
        "location": "Grayson, Kentucky, United States",
        "county": "Grayson County",
        "type": [
            "killing",
            "shooting",
            "murder"
        ]
    },
    "79": {
        "title": "Murder of Pearl Bryan",
        "year": "1896",
        "location": "",
        "county": "Campbell County",
        "type": [
            "murder"
        ]
    },
    "80": {
        "title": "Kentucky State Militia",
        "year": "",
        "location": "",
        "county": "",
        "type": [
            "terrorism",
            "riot"
        ]
    },
    "81": {
        "title": "James Ford (pirate)",
        "year": "1833",
        "location": "",
        "county": "Boone County",
        "type": [
            "robber"
        ]
    },
    "82": {
        "title": "1968 Louisville riots",
        "year": "1968",
        "location": "Louisville, Kentucky, United States",
        "county": "Jefferson County",
        "type": [
            "riot"
        ]
    },
    "83": {
        "title": "Baze v. Rees",
        "year": "",
        "location": "",
        "county": "",
        "type": [
            "murder"
        ]
    },
    "84": {
        "title": "Felix Zollicoffer",
        "year": "1862",
        "location": "",
        "county": "Pulaski County",
        "type": []
    },
    "85": {
        "title": "Murder of Ryan Poston",
        "year": "2012",
        "location": "",
        "county": "Campbell County",
        "type": [
            "murder"
        ]
    },
    "86": {
        "title": "Battle of Evarts",
        "year": "1931",
        "location": "Evarts, Kentucky, United States",
        "county": "Harlan County",
        "type": [
            "riot"
        ]
    },
    "87": {
        "title": "Slave George",
        "year": "new 1811",
        "location": "",
        "county": "Breckinridge County",
        "type": [
            "killing",
            "murder"
        ]
    },
    "88": {
        "title": "Alberta Odell Jones",
        "year": "1965",
        "location": "",
        "county": "Jefferson County",
        "type": [
            "murder"
        ]
    },
    "89": {
        "title": "2022 shooting of Kentucky police officers",
        "year": "2022",
        "location": "Allen, Kentucky, United States",
        "county": "Allen County",
        "type": [
            "shooting",
            "assault",
            "mass shooting",
            "murder"
        ]
    },
    "90": {
        "title": "Will Lockett",
        "year": "1920",
        "location": "",
        "county": "Lyon County",
        "type": [
            "killing",
            "rape",
            "murder"
        ]
    },
    "91": {
        "title": "Kentucky Correctional Institute for Women",
        "year": "",
        "location": "3000 Ash Avenue  Pewee Valley, Kentucky",
        "county": "Oldham County",
        "type": []
    },
    "92": {
        "title": "Lynching of Benjamin and Mollie French",
        "year": "new 1876",
        "location": "",
        "county": "Gallatin County",
        "type": [
            "lynching",
            "murder"
        ]
    },
    "93": {
        "title": "Northpoint Training Center",
        "year": "",
        "location": "",
        "county": "Boyle County",
        "type": [
            "riot"
        ]
    },
    "94": {
        "title": "Ashland tragedy",
        "year": "new 1882",
        "location": "",
        "county": "Boyd County",
        "type": [
            "lynching",
            "murder"
        ]
    },
    "95": {
        "title": "Standard Gravure shooting",
        "year": "1989",
        "location": "Louisville, Kentucky, United States",
        "county": "Jefferson County",
        "type": [
            "shooting",
            "mass shooting",
            "murder"
        ]
    },
    "96": {
        "title": "William Goebel",
        "year": "1900",
        "location": "",
        "county": "Franklin County",
        "type": [
            "murder"
        ]
    },
    "97": {
        "title": "Joe Fulks",
        "year": "1976",
        "location": "",
        "county": "Lyon County",
        "type": []
    },
    "98": {
        "title": "Henry Denhardt",
        "year": "new 1937",
        "location": "",
        "county": "Warren County",
        "type": [
            "murder"
        ]
    },
    "99": {
        "title": "1866 Gallatin County race riot",
        "year": "1866",
        "location": "",
        "county": "Gallatin County",
        "type": [
            "lynching",
            "riot"
        ]
    },
    "100": {
        "title": "George Floyd protests in Kentucky",
        "year": "2020",
        "location": "Kentucky, United States",
        "county": "Jefferson County",
        "type": [
            "shooting",
            "riot",
            "murder"
        ]
    },
    "101": {
        "title": "Murder of William Butler",
        "year": "",
        "location": "",
        "county": "Jefferson County",
        "type": [
            "shooting",
            "murder"
        ]
    },
    "102": {
        "title": "List of people executed in Kentucky",
        "year": "",
        "location": "",
        "county": "Lyon County",
        "type": [
            "rape",
            "murder"
        ]
    },
    "103": {
        "title": "Tom Moran (blocking back)",
        "year": "",
        "location": "",
        "county": "Muhlenberg County",
        "type": [
            "arson"
        ]
    },
    "104": {
        "title": "Robert Smallwood (serial killer)",
        "year": "new 1999",
        "location": "",
        "county": "Fayette County",
        "type": [
            "rape",
            "murder"
        ]
    }
}